{
    "type": "FeatureCollection",
    "features": [
        {
            "type": "Feature",
            "geometry": {
                "type": "Point",
                "coordinates": [
                    144.756653,
                    -37.66806,
                    0
                ]
            },
            "properties": {
                "name": "Calder Park Gym"
            }
        },
        {
            "type": "Feature",
            "geometry": {
                "type": "Point",
                "coordinates": [
                    145.070236,
                    -37.835725,
                    0
                ]
            },
            "properties": {
                "name": "Wilison Station Gym"
            }
        },
        {
            "type": "Feature",
            "geometry": {
                "type": "Point",
                "coordinates": [
                    145.041177,
                    -37.758773,
                    0
                ]
            },
            "properties": {
                "name": "Donaldsons Reserve Gym"
            }
        },
        {
            "type": "Feature",
            "geometry": {
                "type": "Point",
                "coordinates": [
                    145.045806,
                    -37.765613,
                    0
                ]
            },
            "properties": {
                "name": "Ivanhoe Town Hall"
            }
        },
        {
            "type": "Feature",
            "geometry": {
                "type": "Point",
                "coordinates": [
                    145.078289,
                    -37.834042,
                    0
                ]
            },
            "properties": {
                "name": "Middle Camberwell AusPost Gym",
                "description": "Current held by: Blue"
            }
        },
        {
            "type": "Feature",
            "geometry": {
                "type": "Point",
                "coordinates": [
                    145.075568,
                    -37.844037,
                    0
                ]
            },
            "properties": {
                "name": "Hartwell Station Gym"
            }
        },
        {
            "type": "Feature",
            "geometry": {
                "type": "Point",
                "coordinates": [
                    145.047115,
                    -37.755632,
                    0
                ]
            },
            "properties": {
                "name": "Remembrance Garden - Repatriation Hospital Gym"
            }
        },
        {
            "type": "Feature",
            "geometry": {
                "type": "Point",
                "coordinates": [
                    145.136132,
                    -37.91319,
                    0
                ]
            },
            "properties": {
                "name": "Monash Sport"
            }
        },
        {
            "type": "Feature",
            "geometry": {
                "type": "Point",
                "coordinates": [
                    145.137141,
                    -37.908145,
                    0
                ]
            },
            "properties": {
                "name": "Gym"
            }
        },
        {
            "type": "Feature",
            "geometry": {
                "type": "Point",
                "coordinates": [
                    145.043108,
                    -37.7683,
                    0
                ]
            },
            "properties": {
                "name": "Gym"
            }
        },
        {
            "type": "Feature",
            "geometry": {
                "type": "Point",
                "coordinates": [
                    145.047008,
                    -37.764668,
                    0
                ]
            },
            "properties": {
                "name": "Gym"
            }
        },
        {
            "type": "Feature",
            "geometry": {
                "type": "Point",
                "coordinates": [
                    145.032277,
                    -37.764506,
                    0
                ]
            },
            "properties": {
                "name": "Seddon Reserve Gym"
            }
        },
        {
            "type": "Feature",
            "geometry": {
                "type": "Point",
                "coordinates": [
                    145.102444,
                    -37.911193,
                    0
                ]
            },
            "properties": {
                "name": "Huntingdale Station"
            }
        },
        {
            "type": "Feature",
            "geometry": {
                "type": "Point",
                "coordinates": [
                    144.989233,
                    -37.823819,
                    0
                ]
            },
            "properties": {
                "name": "Richmond Station Gym"
            }
        },
        {
            "type": "Feature",
            "geometry": {
                "type": "Point",
                "coordinates": [
                    144.992495,
                    -37.838733,
                    0
                ]
            },
            "properties": {
                "name": "Pokemon Gym",
                "description": "South Yarra Station"
            }
        },
        {
            "type": "Feature",
            "geometry": {
                "type": "Point",
                "coordinates": [
                    145.083293,
                    -37.834467,
                    0
                ]
            },
            "properties": {
                "name": "St Dominic's Gym"
            }
        },
        {
            "type": "Feature",
            "geometry": {
                "type": "Point",
                "coordinates": [
                    145.133938,
                    -37.912619,
                    0
                ]
            },
            "properties": {
                "name": "Forum Pond Gym"
            }
        },
        {
            "type": "Feature",
            "geometry": {
                "type": "Point",
                "coordinates": [
                    145.058541,
                    -37.886285,
                    0
                ]
            },
            "properties": {
                "name": "Carnegie Station Gym"
            }
        },
        {
            "type": "Feature",
            "geometry": {
                "type": "Point",
                "coordinates": [
                    145.037971,
                    -37.756565,
                    0
                ]
            },
            "properties": {
                "name": "Ivanhoe Music Gym"
            }
        },
        {
            "type": "Feature",
            "geometry": {
                "type": "Point",
                "coordinates": [
                    145.007,
                    -37.716689,
                    0
                ]
            },
            "properties": {
                "name": "Reservoir Station Gym"
            }
        },
        {
            "type": "Feature",
            "geometry": {
                "type": "Point",
                "coordinates": [
                    145.009468,
                    -37.707879,
                    0
                ]
            },
            "properties": {
                "name": "Ruthven Station Gym"
            }
        },
        {
            "type": "Feature",
            "geometry": {
                "type": "Point",
                "coordinates": [
                    145.022793,
                    -37.733347,
                    0
                ]
            },
            "properties": {
                "name": "Gym"
            }
        },
        {
            "type": "Feature",
            "geometry": {
                "type": "Point",
                "coordinates": [
                    145.071073,
                    -37.832768,
                    0
                ]
            },
            "properties": {
                "name": "Riversdale Park Gym",
                "description": "Currently Held by: Blue"
            }
        },
        {
            "type": "Feature",
            "geometry": {
                "type": "Point",
                "coordinates": [
                    145.061913,
                    -37.831781,
                    0
                ]
            },
            "properties": {
                "name": "Gym",
                "description": "Trinity Presbyterian Church"
            }
        },
        {
            "type": "Feature",
            "geometry": {
                "type": "Point",
                "coordinates": [
                    145.068283,
                    -37.82565,
                    0
                ]
            },
            "properties": {
                "name": "Gym",
                "description": "East Camberwell Station Gym"
            }
        },
        {
            "type": "Feature",
            "geometry": {
                "type": "Point",
                "coordinates": [
                    145.0643,
                    -37.826141,
                    0
                ]
            },
            "properties": {
                "name": "Read Gardens Gym",
                "description": "Read Gardens"
            }
        },
        {
            "type": "Feature",
            "geometry": {
                "type": "Point",
                "coordinates": [
                    145.059856,
                    -37.826186,
                    0
                ]
            },
            "properties": {
                "name": "Gym",
                "description": "2nd Church of Christ Scientist Melbourne"
            }
        },
        {
            "type": "Feature",
            "geometry": {
                "type": "Point",
                "coordinates": [
                    145.055188,
                    -37.829781,
                    0
                ]
            },
            "properties": {
                "name": "Gym",
                "description": "Dan Murphy's Camberwell"
            }
        },
        {
            "type": "Feature",
            "geometry": {
                "type": "Point",
                "coordinates": [
                    145.033465,
                    -37.765965,
                    0
                ]
            },
            "properties": {
                "name": "Seddon Reserve Gym"
            }
        },
        {
            "type": "Feature",
            "geometry": {
                "type": "Point",
                "coordinates": [
                    145.041092,
                    -37.769974,
                    0
                ]
            },
            "properties": {
                "name": "Historic Fire Station Gym"
            }
        },
        {
            "type": "Feature",
            "geometry": {
                "type": "Point",
                "coordinates": [
                    145.037352,
                    -37.768289,
                    0
                ]
            },
            "properties": {
                "name": "Nellie Ibbot Park Gym"
            }
        },
        {
            "type": "Feature",
            "geometry": {
                "type": "Point",
                "coordinates": [
                    145.096436,
                    -37.77208,
                    0
                ]
            },
            "properties": {
                "name": "St Timothhy's Anglican Gym"
            }
        },
        {
            "type": "Feature",
            "geometry": {
                "type": "Point",
                "coordinates": [
                    145.0884371,
                    -38.0096721,
                    0
                ]
            },
            "properties": {
                "name": "Attenborough Park",
                "description": "<img src=\"https://lh3.googleusercontent.com/proxy/gvl6Z7e2ssobbWRvRuakLHUtgg4jd6GmbjClwh5vdzH8ULWrw2bihZSs5RmuKFeZKQ\" height=\"200\" width=\"auto\" /><br><br>",
                "gx_media_links": "https://lh3.googleusercontent.com/proxy/gvl6Z7e2ssobbWRvRuakLHUtgg4jd6GmbjClwh5vdzH8ULWrw2bihZSs5RmuKFeZKQ"
            }
        },
        {
            "type": "Feature",
            "geometry": {
                "type": "Point",
                "coordinates": [
                    145.085058,
                    -38.008316,
                    0
                ]
            },
            "properties": {
                "name": "Mordialloc Cairn",
                "description": "<img src=\"https://lh4.googleusercontent.com/proxy/6SpvpQOj7amKUZiakyVsW5UoKaDY_2ZXjZS6cgZraU7KnSq1lCNV9vKO-eyhT2Eb8A\" height=\"200\" width=\"auto\" /><br><br>",
                "gx_media_links": "https://lh4.googleusercontent.com/proxy/6SpvpQOj7amKUZiakyVsW5UoKaDY_2ZXjZS6cgZraU7KnSq1lCNV9vKO-eyhT2Eb8A"
            }
        },
        {
            "type": "Feature",
            "geometry": {
                "type": "Point",
                "coordinates": [
                    145.088204,
                    -38.006724,
                    0
                ]
            },
            "properties": {
                "name": "Old Tower",
                "description": "<img src=\"https://lh6.googleusercontent.com/proxy/mOI3WAx8L1awRb68UAD3Ye3zJ9Q6fc0DpC6gIWsjpOG7MlnADd3nxO3wyVNTAhaMkOVdWW8Wzl1hO9sJJnmRakap3QxTD6C-FpgJRIky988Av3aSeuPaSHeO1RJGl14OhVtEBtGVko7vzvNgQnSO6GZhjdk7kMGmw3gSxMapP-IGQTgq-GHZg4RpFwVSi2nroA9tTMchqP7AhIRCIg9uU6nCkooMpy7GOtm3pXBHhuVqQFYTCvE_cVnOFP_89YYi4TSyILvvAsbrknZFO6wleBVde96N2vNSCWUwtjwGxUZiJrPDF8vXk6E4PO73CtgywNC5J-8KodALZ54xRvmcreSoTb6_-Smc_6Vm0bLlVgaO6qsvfaWhSPPofJxcvkIJyASsC-4vCbo7Bxj6rhVyiHihrblRRTHqgQUIMaVQ0cfXutIEFI07KcpDfi_fkeRYXSI2nzZV6qTPWxwPZlQ0lOwCsBNXElY6dtoh\" height=\"200\" width=\"auto\" /><br><br>",
                "gx_media_links": "https://lh6.googleusercontent.com/proxy/mOI3WAx8L1awRb68UAD3Ye3zJ9Q6fc0DpC6gIWsjpOG7MlnADd3nxO3wyVNTAhaMkOVdWW8Wzl1hO9sJJnmRakap3QxTD6C-FpgJRIky988Av3aSeuPaSHeO1RJGl14OhVtEBtGVko7vzvNgQnSO6GZhjdk7kMGmw3gSxMapP-IGQTgq-GHZg4RpFwVSi2nroA9tTMchqP7AhIRCIg9uU6nCkooMpy7GOtm3pXBHhuVqQFYTCvE_cVnOFP_89YYi4TSyILvvAsbrknZFO6wleBVde96N2vNSCWUwtjwGxUZiJrPDF8vXk6E4PO73CtgywNC5J-8KodALZ54xRvmcreSoTb6_-Smc_6Vm0bLlVgaO6qsvfaWhSPPofJxcvkIJyASsC-4vCbo7Bxj6rhVyiHihrblRRTHqgQUIMaVQ0cfXutIEFI07KcpDfi_fkeRYXSI2nzZV6qTPWxwPZlQ0lOwCsBNXElY6dtoh"
            }
        },
        {
            "type": "Feature",
            "geometry": {
                "type": "Point",
                "coordinates": [
                    145.087579,
                    -38.006215,
                    0
                ]
            },
            "properties": {
                "name": "Mordialloc Station",
                "description": "<img src=\"https://lh5.googleusercontent.com/proxy/8mbvTs4Gp-6B60XdopQJD3Jz2Bp4wtuW8JTGwd7RbeidYqU4tr58GUTUs73zBwwGbGMdNT1Uwdhzfw-M-i2TPLD2PUUalF4Oc_FdDNr2nG-am8GFiXt7sWkOwSUUD37dJJIhYPPWINOVojvDWLEkKBGcspy3c0JkahZ_9sGglg0Ri6-IUbY9vuEJR9GjZdqCDxb_kbH_asXXkxrsxq7nvrlO6vlZjEhXV8oJ9hku-_49sswlyqVKyZeioahzYqIatoNINQIPP6IJShQO0gBae9bzkqYuGrC1qD9gYEfMNoe3fjh6pcPbKnocNU8ZXgM4NRyxJ3ptrxPmrplkkBuMt3GkwJgygo2MRrEC_h56TOo5Miij77V7wKC-lDdU_gvUFYSaOnrUZR89R4fi3Ry9evxBjJib4rHnx4kDfCemTuRZXcQ9G7_JkpJwsty9oKGtsEmdDU1EsKgxVkorBi7yLRNYx-hfmQwo5GaC\" height=\"200\" width=\"auto\" /><br><br>",
                "gx_media_links": "https://lh5.googleusercontent.com/proxy/8mbvTs4Gp-6B60XdopQJD3Jz2Bp4wtuW8JTGwd7RbeidYqU4tr58GUTUs73zBwwGbGMdNT1Uwdhzfw-M-i2TPLD2PUUalF4Oc_FdDNr2nG-am8GFiXt7sWkOwSUUD37dJJIhYPPWINOVojvDWLEkKBGcspy3c0JkahZ_9sGglg0Ri6-IUbY9vuEJR9GjZdqCDxb_kbH_asXXkxrsxq7nvrlO6vlZjEhXV8oJ9hku-_49sswlyqVKyZeioahzYqIatoNINQIPP6IJShQO0gBae9bzkqYuGrC1qD9gYEfMNoe3fjh6pcPbKnocNU8ZXgM4NRyxJ3ptrxPmrplkkBuMt3GkwJgygo2MRrEC_h56TOo5Miij77V7wKC-lDdU_gvUFYSaOnrUZR89R4fi3Ry9evxBjJib4rHnx4kDfCemTuRZXcQ9G7_JkpJwsty9oKGtsEmdDU1EsKgxVkorBi7yLRNYx-hfmQwo5GaC"
            }
        },
        {
            "type": "Feature",
            "geometry": {
                "type": "Point",
                "coordinates": [
                    145.098002,
                    -37.999807,
                    0
                ]
            },
            "properties": {
                "name": "Woodlands Golf Club",
                "description": "<img src=\"https://lh6.googleusercontent.com/proxy/XAcJEIJfNIMagw7-mWXaAiPERrQi5qfWViHW6YaUthnQzGgA9v8G_9ppsddK9sfdFQ\" height=\"200\" width=\"auto\" /><br><br>Woodlands golf club in mordialloc",
                "gx_media_links": "https://lh6.googleusercontent.com/proxy/XAcJEIJfNIMagw7-mWXaAiPERrQi5qfWViHW6YaUthnQzGgA9v8G_9ppsddK9sfdFQ"
            }
        },
        {
            "type": "Feature",
            "geometry": {
                "type": "Point",
                "coordinates": [
                    145.053695,
                    -37.76376,
                    0
                ]
            },
            "properties": {
                "name": "Eaglemont Station Gym"
            }
        },
        {
            "type": "Feature",
            "geometry": {
                "type": "Point",
                "coordinates": [
                    145.057619,
                    -37.758204,
                    0
                ]
            },
            "properties": {
                "name": "Remembrance Park Gym"
            }
        },
        {
            "type": "Feature",
            "geometry": {
                "type": "Point",
                "coordinates": [
                    145.078848,
                    -37.97849,
                    0
                ]
            },
            "properties": {
                "name": "Gym"
            }
        },
        {
            "type": "Feature",
            "geometry": {
                "type": "Point",
                "coordinates": [
                    144.9673086,
                    -37.8177681,
                    0
                ]
            },
            "properties": {
                "name": "Gym",
                "description": "Flinders Street Station Gym"
            }
        },
        {
            "type": "Feature",
            "geometry": {
                "type": "Point",
                "coordinates": [
                    145.177143,
                    -37.967499,
                    0
                ]
            },
            "properties": {
                "name": "Gym",
                "description": "Noble Park Train Station"
            }
        },
        {
            "type": "Feature",
            "geometry": {
                "type": "Point",
                "coordinates": [
                    145.053845,
                    -37.764046,
                    0
                ]
            },
            "properties": {
                "name": "Gym"
            }
        },
        {
            "type": "Feature",
            "geometry": {
                "type": "Point",
                "coordinates": [
                    145.152448,
                    -37.853005,
                    0
                ]
            },
            "properties": {
                "name": "Uniting Church"
            }
        },
        {
            "type": "Feature",
            "geometry": {
                "type": "Point",
                "coordinates": [
                    145.143938,
                    -37.83162,
                    0
                ]
            },
            "properties": {
                "name": "Blackburn Animal Hospital"
            }
        },
        {
            "type": "Feature",
            "geometry": {
                "type": "Point",
                "coordinates": [
                    145.146185,
                    -37.841182,
                    0
                ]
            },
            "properties": {
                "name": "Gym"
            }
        },
        {
            "type": "Feature",
            "geometry": {
                "type": "Point",
                "coordinates": [
                    144.776195,
                    -37.751276,
                    0
                ]
            },
            "properties": {
                "name": "Subway"
            }
        },
        {
            "type": "Feature",
            "geometry": {
                "type": "Point",
                "coordinates": [
                    144.774613,
                    -37.769926,
                    0
                ]
            },
            "properties": {
                "name": "Gym"
            }
        },
        {
            "type": "Feature",
            "geometry": {
                "type": "Point",
                "coordinates": [
                    144.888049,
                    -37.673469,
                    0
                ]
            },
            "properties": {
                "name": "Statues At Best Western Attwood Gym"
            }
        },
        {
            "type": "Feature",
            "geometry": {
                "type": "Point",
                "coordinates": [
                    144.8885,
                    -37.676883,
                    0
                ]
            },
            "properties": {
                "name": "Broadmeadows War Memorial Gym"
            }
        },
        {
            "type": "Feature",
            "geometry": {
                "type": "Point",
                "coordinates": [
                    144.892749,
                    -37.676913,
                    0
                ]
            },
            "properties": {
                "name": "Gym"
            }
        },
        {
            "type": "Feature",
            "geometry": {
                "type": "Point",
                "coordinates": [
                    144.785034,
                    -37.756659,
                    0
                ]
            },
            "properties": {
                "name": "Gym",
                "description": "Windmill At Shearwater Meadows"
            }
        },
        {
            "type": "Feature",
            "geometry": {
                "type": "Point",
                "coordinates": [
                    144.740785,
                    -37.889139,
                    0
                ]
            },
            "properties": {
                "name": "Gym"
            }
        },
        {
            "type": "Feature",
            "geometry": {
                "type": "Point",
                "coordinates": [
                    145.18792,
                    -37.924896,
                    0
                ]
            },
            "properties": {
                "name": "gym"
            }
        },
        {
            "type": "Feature",
            "geometry": {
                "type": "Point",
                "coordinates": [
                    145.188811,
                    -37.924879,
                    0
                ]
            },
            "properties": {
                "name": "Gym"
            }
        },
        {
            "type": "Feature",
            "geometry": {
                "type": "Point",
                "coordinates": [
                    145.189315,
                    -37.92498,
                    0
                ]
            },
            "properties": {
                "name": "Gym"
            }
        },
        {
            "type": "Feature",
            "geometry": {
                "type": "Point",
                "coordinates": [
                    145.18939,
                    -37.926004,
                    0
                ]
            },
            "properties": {
                "name": "Gym"
            }
        },
        {
            "type": "Feature",
            "geometry": {
                "type": "Point",
                "coordinates": [
                    145.188253,
                    -37.926258,
                    0
                ]
            },
            "properties": {
                "name": "Gym"
            }
        },
        {
            "type": "Feature",
            "geometry": {
                "type": "Point",
                "coordinates": [
                    145.187813,
                    -37.92542,
                    0
                ]
            },
            "properties": {
                "name": "Gym"
            }
        },
        {
            "type": "Feature",
            "geometry": {
                "type": "Point",
                "coordinates": [
                    145.18777,
                    -37.925852,
                    0
                ]
            },
            "properties": {
                "name": "Gym"
            }
        },
        {
            "type": "Feature",
            "geometry": {
                "type": "Point",
                "coordinates": [
                    145.189991,
                    -37.926978,
                    0
                ]
            },
            "properties": {
                "name": "Gym"
            }
        },
        {
            "type": "Feature",
            "geometry": {
                "type": "Point",
                "coordinates": [
                    145.192105,
                    -37.928873,
                    0
                ]
            },
            "properties": {
                "name": "gym"
            }
        },
        {
            "type": "Feature",
            "geometry": {
                "type": "Point",
                "coordinates": [
                    145.185517,
                    -37.926191,
                    0
                ]
            },
            "properties": {
                "name": "Gym"
            }
        },
        {
            "type": "Feature",
            "geometry": {
                "type": "Point",
                "coordinates": [
                    145.187491,
                    -37.924557,
                    0
                ]
            },
            "properties": {
                "name": "Gym"
            }
        },
        {
            "type": "Feature",
            "geometry": {
                "type": "Point",
                "coordinates": [
                    145.194057,
                    -37.924608,
                    0
                ]
            },
            "properties": {
                "name": "Gym"
            }
        },
        {
            "type": "Feature",
            "geometry": {
                "type": "Point",
                "coordinates": [
                    145.194744,
                    -37.924574,
                    0
                ]
            },
            "properties": {
                "name": "Gym"
            }
        },
        {
            "type": "Feature",
            "geometry": {
                "type": "Point",
                "coordinates": [
                    144.94981,
                    -37.834276,
                    0
                ]
            },
            "properties": {
                "name": "Gym"
            }
        },
        {
            "type": "Feature",
            "geometry": {
                "type": "Point",
                "coordinates": [
                    144.951135,
                    -37.833421,
                    0
                ]
            },
            "properties": {
                "name": "Gym"
            }
        },
        {
            "type": "Feature",
            "geometry": {
                "type": "Point",
                "coordinates": [
                    145.079742,
                    -37.868349,
                    0
                ]
            },
            "properties": {
                "name": "Gym",
                "description": "Alamein Station Gym"
            }
        },
        {
            "type": "Feature",
            "geometry": {
                "type": "Point",
                "coordinates": [
                    -122.133229,
                    47.669441,
                    0
                ]
            },
            "properties": {
                "name": "Marymoor Trails",
                "description": "Digipen -Wilfred ;)"
            }
        },
        {
            "type": "Feature",
            "geometry": {
                "type": "Point",
                "coordinates": [
                    -122.130976,
                    47.673732,
                    0
                ]
            },
            "properties": {
                "name": "Gym",
                "description": "Digipen-Wilfred"
            }
        },
        {
            "type": "Feature",
            "geometry": {
                "type": "Point",
                "coordinates": [
                    -122.131362,
                    47.673299,
                    0
                ]
            },
            "properties": {
                "name": "Gym",
                "description": "Digipen-Wilfred"
            }
        },
        {
            "type": "Feature",
            "geometry": {
                "type": "Point",
                "coordinates": [
                    -122.131609,
                    47.672583,
                    0
                ]
            },
            "properties": {
                "name": "Gym",
                "description": "Digipen-Wilfred"
            }
        },
        {
            "type": "Feature",
            "geometry": {
                "type": "Point",
                "coordinates": [
                    -122.132113,
                    47.672374,
                    0
                ]
            },
            "properties": {
                "name": "Gym",
                "description": "Digipen-Wilfred ;D"
            }
        },
        {
            "type": "Feature",
            "geometry": {
                "type": "Point",
                "coordinates": [
                    145.008244,
                    -37.779242,
                    0
                ]
            },
            "properties": {
                "name": "Dennis Trainstation"
            }
        },
        {
            "type": "Feature",
            "geometry": {
                "type": "Point",
                "coordinates": [
                    145.070761,
                    -37.89626,
                    0
                ]
            },
            "properties": {
                "name": "Gym"
            }
        },
        {
            "type": "Feature",
            "geometry": {
                "type": "Point",
                "coordinates": [
                    145.114559,
                    -37.774255,
                    0
                ]
            },
            "properties": {
                "name": "Space Love Manga Gym"
            }
        },
        {
            "type": "Feature",
            "geometry": {
                "type": "Point",
                "coordinates": [
                    144.918573,
                    -37.576602,
                    0
                ]
            },
            "properties": {
                "name": "Giant Insect Playground Gym"
            }
        },
        {
            "type": "Feature",
            "geometry": {
                "type": "Point",
                "coordinates": [
                    145.038757,
                    -37.774802,
                    0
                ]
            },
            "properties": {
                "name": "Darebin Station Gym"
            }
        },
        {
            "type": "Feature",
            "geometry": {
                "type": "Point",
                "coordinates": [
                    145.037459,
                    -37.775447,
                    0
                ]
            },
            "properties": {
                "name": "Masonic Temple Gym"
            }
        },
        {
            "type": "Feature",
            "geometry": {
                "type": "Point",
                "coordinates": [
                    145.037346,
                    -37.77763,
                    0
                ]
            },
            "properties": {
                "name": "Sparks Reserve Gym"
            }
        },
        {
            "type": "Feature",
            "geometry": {
                "type": "Point",
                "coordinates": [
                    145.045789,
                    -37.771897,
                    0
                ]
            },
            "properties": {
                "name": "Rabbit Mural Gym"
            }
        },
        {
            "type": "Feature",
            "geometry": {
                "type": "Point",
                "coordinates": [
                    145.052592,
                    -37.773556,
                    0
                ]
            },
            "properties": {
                "name": "Ivanhoe Cricket Club Gym"
            }
        },
        {
            "type": "Feature",
            "geometry": {
                "type": "Point",
                "coordinates": [
                    145.054593,
                    -37.772118,
                    0
                ]
            },
            "properties": {
                "name": "150 Year Old Laneway Gym"
            }
        },
        {
            "type": "Feature",
            "geometry": {
                "type": "Point",
                "coordinates": [
                    145.057715,
                    -37.772508,
                    0
                ]
            },
            "properties": {
                "name": "Gym"
            }
        },
        {
            "type": "Feature",
            "geometry": {
                "type": "Point",
                "coordinates": [
                    145.062798,
                    -37.770626,
                    0
                ]
            },
            "properties": {
                "name": "East Ivanhoe Uniting Church"
            }
        },
        {
            "type": "Feature",
            "geometry": {
                "type": "Point",
                "coordinates": [
                    145.054885,
                    -37.763885,
                    0
                ]
            },
            "properties": {
                "name": "Eaglemont Model Dairy Gym"
            }
        },
        {
            "type": "Feature",
            "geometry": {
                "type": "Point",
                "coordinates": [
                    145.112936,
                    -37.816294,
                    0
                ]
            },
            "properties": {
                "name": "Gym - Box Hill Gardens",
                "description": "Gym"
            }
        },
        {
            "type": "Feature",
            "geometry": {
                "type": "Point",
                "coordinates": [
                    145.105448,
                    -37.81948,
                    0
                ]
            },
            "properties": {
                "name": "Gym - Mont Albert Station",
                "description": "Gym"
            }
        },
        {
            "type": "Feature",
            "geometry": {
                "type": "Point",
                "coordinates": [
                    145.060746,
                    -37.757153,
                    0
                ]
            },
            "properties": {
                "name": "Heidelberg Station Gym"
            }
        },
        {
            "type": "Feature",
            "geometry": {
                "type": "Point",
                "coordinates": [
                    145.058536,
                    -37.755643,
                    0
                ]
            },
            "properties": {
                "name": "From Mountains to Sea Gym"
            }
        },
        {
            "type": "Feature",
            "geometry": {
                "type": "Point",
                "coordinates": [
                    145.063595,
                    -37.756001,
                    0
                ]
            },
            "properties": {
                "name": "Scots Church Heidelberg Gym"
            }
        },
        {
            "type": "Feature",
            "geometry": {
                "type": "Point",
                "coordinates": [
                    145.069911,
                    -37.757645,
                    0
                ]
            },
            "properties": {
                "name": "Heidelberg Police Station"
            }
        },
        {
            "type": "Feature",
            "geometry": {
                "type": "Point",
                "coordinates": [
                    145.072009,
                    -37.756631,
                    0
                ]
            },
            "properties": {
                "name": "St Johns Anglican Church Gym"
            }
        },
        {
            "type": "Feature",
            "geometry": {
                "type": "Point",
                "coordinates": [
                    145.075954,
                    -37.755134,
                    0
                ]
            },
            "properties": {
                "name": "25 Manna Gums Plaque Gym"
            }
        },
        {
            "type": "Feature",
            "geometry": {
                "type": "Point",
                "coordinates": [
                    145.082064,
                    -37.757008,
                    0
                ]
            },
            "properties": {
                "name": "The Dish Gym"
            }
        },
        {
            "type": "Feature",
            "geometry": {
                "type": "Point",
                "coordinates": [
                    145.082933,
                    -37.758504,
                    0
                ]
            },
            "properties": {
                "name": "Saturn's Rings Gym"
            }
        },
        {
            "type": "Feature",
            "geometry": {
                "type": "Point",
                "coordinates": [
                    145.079226,
                    -37.76035,
                    0
                ]
            },
            "properties": {
                "name": "Bulleen Art & Garden Gym"
            }
        },
        {
            "type": "Feature",
            "geometry": {
                "type": "Point",
                "coordinates": [
                    145.074613,
                    -37.761903,
                    0
                ]
            },
            "properties": {
                "name": "Winter Morning Near Gym"
            }
        },
        {
            "type": "Feature",
            "geometry": {
                "type": "Point",
                "coordinates": [
                    144.780989,
                    -37.730959,
                    0
                ]
            },
            "properties": {
                "name": "Beverley Street Reserve"
            }
        },
        {
            "type": "Feature",
            "geometry": {
                "type": "Point",
                "coordinates": [
                    145.090025,
                    -37.763633,
                    0
                ]
            },
            "properties": {
                "name": "Ronald Reserve"
            }
        },
        {
            "type": "Feature",
            "geometry": {
                "type": "Point",
                "coordinates": [
                    145.093222,
                    -37.758544,
                    0
                ]
            },
            "properties": {
                "name": "Sheehans Road Reserve Entrance Gym"
            }
        },
        {
            "type": "Feature",
            "geometry": {
                "type": "Point",
                "coordinates": [
                    144.964932,
                    -37.81809,
                    0
                ]
            },
            "properties": {
                "name": "Gym",
                "description": "Clock Tower"
            }
        },
        {
            "type": "Feature",
            "geometry": {
                "type": "Point",
                "coordinates": [
                    145.166455,
                    -37.791469,
                    0
                ]
            },
            "properties": {
                "name": "Beverley Street Reserve"
            }
        },
        {
            "type": "Feature",
            "geometry": {
                "type": "Point",
                "coordinates": [
                    145.092785,
                    -37.757967,
                    0
                ]
            },
            "properties": {
                "name": "Sheahans Road Reserve Gym"
            }
        },
        {
            "type": "Feature",
            "geometry": {
                "type": "Point",
                "coordinates": [
                    144.957427,
                    -37.818374,
                    0
                ]
            },
            "properties": {
                "name": "Gym",
                "description": "Reuniting Family Statues, Rialto Towers"
            }
        },
        {
            "type": "Feature",
            "geometry": {
                "type": "Point",
                "coordinates": [
                    145.16039,
                    -37.78832,
                    0
                ]
            },
            "properties": {
                "name": "Doncaster City Church"
            }
        },
        {
            "type": "Feature",
            "geometry": {
                "type": "Point",
                "coordinates": [
                    144.952594,
                    -37.81854,
                    0
                ]
            },
            "properties": {
                "name": "Southern Cross Station Gym"
            }
        },
        {
            "type": "Feature",
            "geometry": {
                "type": "Point",
                "coordinates": [
                    145.100192,
                    -37.762736,
                    0
                ]
            },
            "properties": {
                "name": "Swanston Street Reserve"
            }
        },
        {
            "type": "Feature",
            "geometry": {
                "type": "Point",
                "coordinates": [
                    144.956998,
                    -37.823205,
                    0
                ]
            },
            "properties": {
                "name": "Gym",
                "description": "Pigeon Roaster"
            }
        },
        {
            "type": "Feature",
            "geometry": {
                "type": "Point",
                "coordinates": [
                    144.953501,
                    -37.824464,
                    0
                ]
            },
            "properties": {
                "name": "Gym",
                "description": "Polly Woodside"
            }
        },
        {
            "type": "Feature",
            "geometry": {
                "type": "Point",
                "coordinates": [
                    144.956757,
                    -37.825557,
                    0
                ]
            },
            "properties": {
                "name": "Gym",
                "description": "Colonial Tram Stop"
            }
        },
        {
            "type": "Feature",
            "geometry": {
                "type": "Point",
                "coordinates": [
                    144.961579,
                    -37.822591,
                    0
                ]
            },
            "properties": {
                "name": "Gym",
                "description": "Metal Work"
            }
        },
        {
            "type": "Feature",
            "geometry": {
                "type": "Point",
                "coordinates": [
                    145.173297,
                    -38.16515,
                    0
                ]
            },
            "properties": {
                "name": "Dune Track Entrance North"
            }
        },
        {
            "type": "Feature",
            "geometry": {
                "type": "Point",
                "coordinates": [
                    144.96335,
                    -37.81395,
                    0
                ]
            },
            "properties": {
                "name": "Gym",
                "description": "Melbourne GPO Building"
            }
        },
        {
            "type": "Feature",
            "geometry": {
                "type": "Point",
                "coordinates": [
                    145.107407,
                    -37.763153,
                    0
                ]
            },
            "properties": {
                "name": "Richard Reserve Gym"
            }
        },
        {
            "type": "Feature",
            "geometry": {
                "type": "Point",
                "coordinates": [
                    144.958608,
                    -37.810958,
                    0
                ]
            },
            "properties": {
                "name": "Gym",
                "description": "Killing Whale"
            }
        },
        {
            "type": "Feature",
            "geometry": {
                "type": "Point",
                "coordinates": [
                    144.952498,
                    -37.809004,
                    0
                ]
            },
            "properties": {
                "name": "Gym",
                "description": "Witches in Britches"
            }
        },
        {
            "type": "Feature",
            "geometry": {
                "type": "Point",
                "coordinates": [
                    145.113848,
                    -37.759348,
                    0
                ]
            },
            "properties": {
                "name": "Heath Street Hoop Gym"
            }
        },
        {
            "type": "Feature",
            "geometry": {
                "type": "Point",
                "coordinates": [
                    144.960458,
                    -37.808044,
                    0
                ]
            },
            "properties": {
                "name": "Gym",
                "description": "Mustachioed Golf Ball"
            }
        },
        {
            "type": "Feature",
            "geometry": {
                "type": "Point",
                "coordinates": [
                    145.117689,
                    -37.756157,
                    0
                ]
            },
            "properties": {
                "name": "The Tempy Fountain Gym"
            }
        },
        {
            "type": "Feature",
            "geometry": {
                "type": "Point",
                "coordinates": [
                    144.962057,
                    -37.807563,
                    0
                ]
            },
            "properties": {
                "name": "Gym",
                "description": "#ABSOLUTOZ Art Mural"
            }
        },
        {
            "type": "Feature",
            "geometry": {
                "type": "Point",
                "coordinates": [
                    145.112684,
                    -37.753067,
                    0
                ]
            },
            "properties": {
                "name": "Main Yarra Trail Gym"
            }
        },
        {
            "type": "Feature",
            "geometry": {
                "type": "Point",
                "coordinates": [
                    144.963127,
                    -37.80686,
                    0
                ]
            },
            "properties": {
                "name": "Gym",
                "description": "Melbourne City Baths"
            }
        },
        {
            "type": "Feature",
            "geometry": {
                "type": "Point",
                "coordinates": [
                    145.121769,
                    -37.753658,
                    0
                ]
            },
            "properties": {
                "name": "Heritage Montery Cypress Tree Carving Gym"
            }
        },
        {
            "type": "Feature",
            "geometry": {
                "type": "Point",
                "coordinates": [
                    145.124996,
                    -37.758781,
                    0
                ]
            },
            "properties": {
                "name": "Ruffey Creek Trail Gym"
            }
        },
        {
            "type": "Feature",
            "geometry": {
                "type": "Point",
                "coordinates": [
                    145.126302,
                    -37.761101,
                    0
                ]
            },
            "properties": {
                "name": "Ruffey Trail Dellfield Drive East Gym"
            }
        },
        {
            "type": "Feature",
            "geometry": {
                "type": "Point",
                "coordinates": [
                    144.968821,
                    -37.8117,
                    0
                ]
            },
            "properties": {
                "name": "Gym",
                "description": "Croft Alley Art"
            }
        },
        {
            "type": "Feature",
            "geometry": {
                "type": "Point",
                "coordinates": [
                    145.12988,
                    -37.757782,
                    0
                ]
            },
            "properties": {
                "name": "Templestowe Post Office Gym"
            }
        },
        {
            "type": "Feature",
            "geometry": {
                "type": "Point",
                "coordinates": [
                    144.972528,
                    -37.809479,
                    0
                ]
            },
            "properties": {
                "name": "Parliament Station Gym"
            }
        },
        {
            "type": "Feature",
            "geometry": {
                "type": "Point",
                "coordinates": [
                    145.195999,
                    -38.122581,
                    0
                ]
            },
            "properties": {
                "name": "Gym"
            }
        },
        {
            "type": "Feature",
            "geometry": {
                "type": "Point",
                "coordinates": [
                    144.972601,
                    -37.815768,
                    0
                ]
            },
            "properties": {
                "name": "Gym",
                "description": "The Press Club"
            }
        },
        {
            "type": "Feature",
            "geometry": {
                "type": "Point",
                "coordinates": [
                    145.190656,
                    -38.12004,
                    0
                ]
            },
            "properties": {
                "name": "Gym"
            }
        },
        {
            "type": "Feature",
            "geometry": {
                "type": "Point",
                "coordinates": [
                    144.974502,
                    -37.815115,
                    0
                ]
            },
            "properties": {
                "name": "Gym",
                "description": "Spring Fan"
            }
        },
        {
            "type": "Feature",
            "geometry": {
                "type": "Point",
                "coordinates": [
                    145.189948,
                    -38.11479,
                    0
                ]
            },
            "properties": {
                "name": "Gym"
            }
        },
        {
            "type": "Feature",
            "geometry": {
                "type": "Point",
                "coordinates": [
                    144.977952,
                    -37.816001,
                    0
                ]
            },
            "properties": {
                "name": "Gym",
                "description": "Wellington Park"
            }
        },
        {
            "type": "Feature",
            "geometry": {
                "type": "Point",
                "coordinates": [
                    144.971375,
                    -37.805431,
                    0
                ]
            },
            "properties": {
                "name": "Gym",
                "description": "Carlton Gardens Fountain"
            }
        },
        {
            "type": "Feature",
            "geometry": {
                "type": "Point",
                "coordinates": [
                    144.97248,
                    -37.804893,
                    0
                ]
            },
            "properties": {
                "name": "Gym",
                "description": "Royal Exhibition Building"
            }
        },
        {
            "type": "Feature",
            "geometry": {
                "type": "Point",
                "coordinates": [
                    145.177492,
                    -38.165285,
                    0
                ]
            },
            "properties": {
                "name": "Cinnamon Gate"
            }
        },
        {
            "type": "Feature",
            "geometry": {
                "type": "Point",
                "coordinates": [
                    145.07575,
                    -37.898224,
                    0
                ]
            },
            "properties": {
                "name": "Mary Magdalene Street Art"
            }
        },
        {
            "type": "Feature",
            "geometry": {
                "type": "Point",
                "coordinates": [
                    145.175931,
                    -37.702332,
                    0
                ]
            },
            "properties": {
                "name": "Gym"
            }
        },
        {
            "type": "Feature",
            "geometry": {
                "type": "Point",
                "coordinates": [
                    145.097777,
                    -37.705307,
                    0
                ]
            },
            "properties": {
                "name": "Gym"
            }
        },
        {
            "type": "Feature",
            "geometry": {
                "type": "Point",
                "coordinates": [
                    145.099279,
                    -37.705503,
                    0
                ]
            },
            "properties": {
                "name": "Gym"
            }
        },
        {
            "type": "Feature",
            "geometry": {
                "type": "Point",
                "coordinates": [
                    145.100534,
                    -37.704543,
                    0
                ]
            },
            "properties": {
                "name": "Gym"
            }
        },
        {
            "type": "Feature",
            "geometry": {
                "type": "Point",
                "coordinates": [
                    145.152708,
                    -37.827713,
                    0
                ]
            },
            "properties": {
                "name": "Furness Park"
            }
        },
        {
            "type": "Feature",
            "geometry": {
                "type": "Point",
                "coordinates": [
                    144.78487,
                    -37.868639,
                    0
                ]
            },
            "properties": {
                "name": "Ron Dawes Fountain",
                "description": "Water Fountain in small park"
            }
        },
        {
            "type": "Feature",
            "geometry": {
                "type": "Point",
                "coordinates": [
                    145.131379,
                    -37.912864,
                    0
                ]
            },
            "properties": {
                "name": "Biochem Gym"
            }
        },
        {
            "type": "Feature",
            "geometry": {
                "type": "Point",
                "coordinates": [
                    145.140746,
                    -37.913863,
                    0
                ]
            },
            "properties": {
                "name": "Australia Synchrotron Gym"
            }
        },
        {
            "type": "Feature",
            "geometry": {
                "type": "Point",
                "coordinates": [
                    145.298073,
                    -38.019596,
                    0
                ]
            },
            "properties": {
                "name": "Beconsfield Memorial Plaque"
            }
        },
        {
            "type": "Feature",
            "geometry": {
                "type": "Point",
                "coordinates": [
                    145.131176,
                    -37.910901,
                    0
                ]
            },
            "properties": {
                "name": "Gym"
            }
        },
        {
            "type": "Feature",
            "geometry": {
                "type": "Point",
                "coordinates": [
                    145.131074,
                    -37.911506,
                    0
                ]
            },
            "properties": {
                "name": "Gym"
            }
        },
        {
            "type": "Feature",
            "geometry": {
                "type": "Point",
                "coordinates": [
                    145.119824,
                    -37.765331,
                    0
                ]
            },
            "properties": {
                "name": "St Mark's Church Gym"
            }
        },
        {
            "type": "Feature",
            "geometry": {
                "type": "Point",
                "coordinates": [
                    145.12293,
                    -37.769262,
                    0
                ]
            },
            "properties": {
                "name": "Children's Pirate Boat Gym"
            }
        },
        {
            "type": "Feature",
            "geometry": {
                "type": "Point",
                "coordinates": [
                    145.110737,
                    -37.775388,
                    0
                ]
            },
            "properties": {
                "name": "Anthony Avenue Reserve Gym"
            }
        },
        {
            "type": "Feature",
            "geometry": {
                "type": "Point",
                "coordinates": [
                    145.108935,
                    -37.775735,
                    0
                ]
            },
            "properties": {
                "name": "Anthony Avenue Reserve Gym"
            }
        },
        {
            "type": "Feature",
            "geometry": {
                "type": "Point",
                "coordinates": [
                    145.106631,
                    -37.777118,
                    0
                ]
            },
            "properties": {
                "name": "Timber Ridge Reserve Gym"
            }
        },
        {
            "type": "Feature",
            "geometry": {
                "type": "Point",
                "coordinates": [
                    145.102068,
                    -37.779861,
                    0
                ]
            },
            "properties": {
                "name": "Westwood Reserve Gym"
            }
        },
        {
            "type": "Feature",
            "geometry": {
                "type": "Point",
                "coordinates": [
                    145.093769,
                    -37.780187,
                    0
                ]
            },
            "properties": {
                "name": "Giant archway Sculpture Gym"
            }
        },
        {
            "type": "Feature",
            "geometry": {
                "type": "Point",
                "coordinates": [
                    145.092305,
                    -37.780107,
                    0
                ]
            },
            "properties": {
                "name": "The Frog Gym"
            }
        },
        {
            "type": "Feature",
            "geometry": {
                "type": "Point",
                "coordinates": [
                    145.096102,
                    -37.783368,
                    0
                ]
            },
            "properties": {
                "name": "Koonung Creek Reserve Arama St Entrance Gym"
            }
        },
        {
            "type": "Feature",
            "geometry": {
                "type": "Point",
                "coordinates": [
                    145.02724,
                    -37.764602,
                    0
                ]
            },
            "properties": {
                "name": "Ford Mural Gym"
            }
        },
        {
            "type": "Feature",
            "geometry": {
                "type": "Point",
                "coordinates": [
                    145.028179,
                    -37.767768,
                    0
                ]
            },
            "properties": {
                "name": "Wild Child Mural Gym"
            }
        },
        {
            "type": "Feature",
            "geometry": {
                "type": "Point",
                "coordinates": [
                    145.035678,
                    -37.795907,
                    0
                ]
            },
            "properties": {
                "name": "Kew Wall Art Mural Gym"
            }
        },
        {
            "type": "Feature",
            "geometry": {
                "type": "Point",
                "coordinates": [
                    145.039648,
                    -37.791854,
                    0
                ]
            },
            "properties": {
                "name": "Jack O'Toole Research Gym"
            }
        },
        {
            "type": "Feature",
            "geometry": {
                "type": "Point",
                "coordinates": [
                    145.043296,
                    -37.789234,
                    0
                ]
            },
            "properties": {
                "name": "Willsmere Billabong Entrance and Information Gym"
            }
        },
        {
            "type": "Feature",
            "geometry": {
                "type": "Point",
                "coordinates": [
                    145.032599,
                    -37.793228,
                    0
                ]
            },
            "properties": {
                "name": "Bridge Over Yarra River Gym"
            }
        },
        {
            "type": "Feature",
            "geometry": {
                "type": "Point",
                "coordinates": [
                    145.038712,
                    -37.807673,
                    0
                ]
            },
            "properties": {
                "name": "Gym"
            }
        },
        {
            "type": "Feature",
            "geometry": {
                "type": "Point",
                "coordinates": [
                    103.897244,
                    1.312376,
                    0
                ]
            },
            "properties": {
                "name": "Gym"
            }
        },
        {
            "type": "Feature",
            "geometry": {
                "type": "Point",
                "coordinates": [
                    103.896749,
                    1.312132,
                    0
                ]
            },
            "properties": {
                "name": "Gym"
            }
        },
        {
            "type": "Feature",
            "geometry": {
                "type": "Point",
                "coordinates": [
                    103.897802,
                    1.310912,
                    0
                ]
            },
            "properties": {
                "name": "Gym"
            }
        },
        {
            "type": "Feature",
            "geometry": {
                "type": "Point",
                "coordinates": [
                    145.12628,
                    -37.784162,
                    0
                ]
            },
            "properties": {
                "name": "Gym"
            }
        },
        {
            "type": "Feature",
            "geometry": {
                "type": "Point",
                "coordinates": [
                    145.017198,
                    -37.655112,
                    0
                ]
            },
            "properties": {
                "name": "Gym"
            }
        },
        {
            "type": "Feature",
            "geometry": {
                "type": "Point",
                "coordinates": [
                    145.021039,
                    -37.653302,
                    0
                ]
            },
            "properties": {
                "name": "Gym"
            }
        },
        {
            "type": "Feature",
            "geometry": {
                "type": "Point",
                "coordinates": [
                    145.485721,
                    -38.080257,
                    0
                ]
            },
            "properties": {
                "name": "Pakenham Train Station Gym"
            }
        },
        {
            "type": "Feature",
            "geometry": {
                "type": "Point",
                "coordinates": [
                    145.483795,
                    -38.076132,
                    0
                ]
            },
            "properties": {
                "name": "Pakenham War Memorial Gym"
            }
        },
        {
            "type": "Feature",
            "geometry": {
                "type": "Point",
                "coordinates": [
                    145.485592,
                    -38.059429,
                    0
                ]
            },
            "properties": {
                "name": "Don Jackson Res. Gym"
            }
        },
        {
            "type": "Feature",
            "geometry": {
                "type": "Point",
                "coordinates": [
                    145.475606,
                    -38.07159,
                    0
                ]
            },
            "properties": {
                "name": "Gym"
            }
        },
        {
            "type": "Feature",
            "geometry": {
                "type": "Point",
                "coordinates": [
                    145.471473,
                    -38.072677,
                    0
                ]
            },
            "properties": {
                "name": "Gym"
            }
        },
        {
            "type": "Feature",
            "geometry": {
                "type": "Point",
                "coordinates": [
                    151.070721,
                    -34.035573,
                    0
                ]
            },
            "properties": {
                "name": "Pollard Park Gym",
                "description": "Pollard Park (GYM)"
            }
        },
        {
            "type": "Feature",
            "geometry": {
                "type": "Point",
                "coordinates": [
                    150.018665,
                    -35.904838,
                    0
                ]
            },
            "properties": {
                "name": "Gym"
            }
        },
        {
            "type": "Feature",
            "geometry": {
                "type": "Point",
                "coordinates": [
                    145.181773,
                    -37.664085,
                    0
                ]
            },
            "properties": {
                "name": "Gym",
                "description": "Wattle Glen Station"
            }
        },
        {
            "type": "Feature",
            "geometry": {
                "type": "Point",
                "coordinates": [
                    145.175646,
                    -37.670709,
                    0
                ]
            },
            "properties": {
                "name": "PokeStop",
                "description": "Diamond Creek 1 mile sign"
            }
        },
        {
            "type": "Feature",
            "geometry": {
                "type": "Point",
                "coordinates": [
                    144.866656,
                    -37.732702,
                    0
                ]
            },
            "properties": {
                "name": "Gym"
            }
        },
        {
            "type": "Feature",
            "geometry": {
                "type": "Point",
                "coordinates": [
                    153.001512,
                    -27.494468,
                    0
                ]
            },
            "properties": {
                "name": "Avalon Theatre"
            }
        },
        {
            "type": "Feature",
            "geometry": {
                "type": "Point",
                "coordinates": [
                    145.1746,
                    -37.993647,
                    0
                ]
            },
            "properties": {
                "name": "Kmart Tyre & Auto"
            }
        },
        {
            "type": "Feature",
            "geometry": {
                "type": "Point",
                "coordinates": [
                    153.006447,
                    -27.494125,
                    0
                ]
            },
            "properties": {
                "name": "UQ Sign"
            }
        },
        {
            "type": "Feature",
            "geometry": {
                "type": "Point",
                "coordinates": [
                    152.998856,
                    -27.497128,
                    0
                ]
            },
            "properties": {
                "name": "St. Lucia Playground"
            }
        },
        {
            "type": "Feature",
            "geometry": {
                "type": "Point",
                "coordinates": [
                    152.996552,
                    -27.483109,
                    0
                ]
            },
            "properties": {
                "name": "Regatta Ferry Terminal"
            }
        },
        {
            "type": "Feature",
            "geometry": {
                "type": "Point",
                "coordinates": [
                    145.152108,
                    -37.8767,
                    0
                ]
            },
            "properties": {
                "name": "Syndal Baptist Church"
            }
        },
        {
            "type": "Feature",
            "geometry": {
                "type": "Point",
                "coordinates": [
                    153.010527,
                    -27.492198,
                    0
                ]
            },
            "properties": {
                "name": "Rowing Club"
            }
        },
        {
            "type": "Feature",
            "geometry": {
                "type": "Point",
                "coordinates": [
                    145.013673,
                    -37.762004,
                    0
                ]
            },
            "properties": {
                "name": "Span community house Gym"
            }
        },
        {
            "type": "Feature",
            "geometry": {
                "type": "Point",
                "coordinates": [
                    145.217736,
                    -37.983661,
                    0
                ]
            },
            "properties": {
                "name": "Gym"
            }
        },
        {
            "type": "Feature",
            "geometry": {
                "type": "Point",
                "coordinates": [
                    145.214549,
                    -37.985445,
                    0
                ]
            },
            "properties": {
                "name": "Gym"
            }
        },
        {
            "type": "Feature",
            "geometry": {
                "type": "Point",
                "coordinates": [
                    145.208445,
                    -37.98035,
                    0
                ]
            },
            "properties": {
                "name": "Gym"
            }
        },
        {
            "type": "Feature",
            "geometry": {
                "type": "Point",
                "coordinates": [
                    145.217521,
                    -37.992848,
                    0
                ]
            },
            "properties": {
                "name": "Gym"
            }
        },
        {
            "type": "Feature",
            "geometry": {
                "type": "Point",
                "coordinates": [
                    145.219817,
                    -37.995977,
                    0
                ]
            },
            "properties": {
                "name": "Gym"
            }
        },
        {
            "type": "Feature",
            "geometry": {
                "type": "Point",
                "coordinates": [
                    145.190313,
                    -37.876327,
                    0
                ]
            },
            "properties": {
                "name": "Bulbasaur"
            }
        },
        {
            "type": "Feature",
            "geometry": {
                "type": "Point",
                "coordinates": [
                    145.017782,
                    -37.870416,
                    0
                ]
            },
            "properties": {
                "name": "Memorial Park Arch of Plaques Gym"
            }
        },
        {
            "type": "Feature",
            "geometry": {
                "type": "Point",
                "coordinates": [
                    144.782746,
                    -37.763096,
                    0
                ]
            },
            "properties": {
                "name": "Gym"
            }
        },
        {
            "type": "Feature",
            "geometry": {
                "type": "Point",
                "coordinates": [
                    145.128458,
                    -38.190066,
                    0
                ]
            },
            "properties": {
                "name": "Paratea Reserve Gym"
            }
        },
        {
            "type": "Feature",
            "geometry": {
                "type": "Point",
                "coordinates": [
                    145.130875,
                    -38.1619,
                    0
                ]
            },
            "properties": {
                "name": "Frankston High School Gym"
            }
        },
        {
            "type": "Feature",
            "geometry": {
                "type": "Point",
                "coordinates": [
                    145.125865,
                    -38.142919,
                    0
                ]
            },
            "properties": {
                "name": "Frankston Train Station",
                "description": "<img src=\"https://lh5.googleusercontent.com/proxy/yKkRJxd-kRD2vaxkF--KMHyLUV84Jf-wirg-h8cGg9OHMg092sWLhUSk__zFar-F6ZaAQ-hgcFVhPr8kHcQNDdm4MpM2t0eWUvJRMGZLodtiv1T3osJEZGHEo9tEyR6T46xMvxoMjoxsCWbMCLgBj68M6hhqAqiZiXGU02BC-8Pz5-VK3ztSsSYRlVOwgmRQgT9MhQ96WVkMPOCdq31KjoAgd_FSKk_FFVpVRM1Cl2K8sHHTfIqku2Q6bHbu0HQb-sFSIDKnJMPXmzN0xVwb9zRD6ZvvroVXInvQfvboDwB08t7KYW11RMdp8bag-t79xftFxkwvhWhcUpUPQUfx5CLPrAyvGZD95XaASGsg7icMd3nG-4x76vWUiYMwASa1_JJUUfhvGUsznltQbaohNjdTInng4h7KFNdsBPX29oTi09Rm9F1qpzbau2kpKje6vk2DDEgy_SlTacJuEVjxhBkKCXV1oEa7zfNh\" height=\"200\" width=\"auto\" /><br><br>",
                "gx_media_links": "https://lh5.googleusercontent.com/proxy/yKkRJxd-kRD2vaxkF--KMHyLUV84Jf-wirg-h8cGg9OHMg092sWLhUSk__zFar-F6ZaAQ-hgcFVhPr8kHcQNDdm4MpM2t0eWUvJRMGZLodtiv1T3osJEZGHEo9tEyR6T46xMvxoMjoxsCWbMCLgBj68M6hhqAqiZiXGU02BC-8Pz5-VK3ztSsSYRlVOwgmRQgT9MhQ96WVkMPOCdq31KjoAgd_FSKk_FFVpVRM1Cl2K8sHHTfIqku2Q6bHbu0HQb-sFSIDKnJMPXmzN0xVwb9zRD6ZvvroVXInvQfvboDwB08t7KYW11RMdp8bag-t79xftFxkwvhWhcUpUPQUfx5CLPrAyvGZD95XaASGsg7icMd3nG-4x76vWUiYMwASa1_JJUUfhvGUsznltQbaohNjdTInng4h7KFNdsBPX29oTi09Rm9F1qpzbau2kpKje6vk2DDEgy_SlTacJuEVjxhBkKCXV1oEa7zfNh"
            }
        },
        {
            "type": "Feature",
            "geometry": {
                "type": "Point",
                "coordinates": [
                    144.997929,
                    -37.910846,
                    0
                ]
            },
            "properties": {
                "name": "Brighton Library Gym"
            }
        },
        {
            "type": "Feature",
            "geometry": {
                "type": "Point",
                "coordinates": [
                    144.992709,
                    -37.911447,
                    0
                ]
            },
            "properties": {
                "name": "St Andrew's Church Gym"
            }
        },
        {
            "type": "Feature",
            "geometry": {
                "type": "Point",
                "coordinates": [
                    144.88143,
                    -37.840123,
                    0
                ]
            },
            "properties": {
                "name": "Sacred Heart School Newport"
            }
        },
        {
            "type": "Feature",
            "geometry": {
                "type": "Point",
                "coordinates": [
                    145.014656,
                    -37.731286,
                    0
                ]
            },
            "properties": {
                "name": "Gym - St Mary's Church"
            }
        },
        {
            "type": "Feature",
            "geometry": {
                "type": "Point",
                "coordinates": [
                    145.006168,
                    -37.72483,
                    0
                ]
            },
            "properties": {
                "name": "Gym - Gilbert E. Robertson Park"
            }
        },
        {
            "type": "Feature",
            "geometry": {
                "type": "Point",
                "coordinates": [
                    145.002714,
                    -37.728727,
                    0
                ]
            },
            "properties": {
                "name": "Gym - Regent Station"
            }
        },
        {
            "type": "Feature",
            "geometry": {
                "type": "Point",
                "coordinates": [
                    143.149324,
                    -38.233849,
                    0
                ]
            },
            "properties": {
                "name": "Gym"
            }
        },
        {
            "type": "Feature",
            "geometry": {
                "type": "Point",
                "coordinates": [
                    143.146899,
                    -38.229955,
                    0
                ]
            },
            "properties": {
                "name": "Gym"
            }
        },
        {
            "type": "Feature",
            "geometry": {
                "type": "Point",
                "coordinates": [
                    138.614073,
                    -35.047407,
                    0
                ]
            },
            "properties": {
                "name": "Gym"
            }
        },
        {
            "type": "Feature",
            "geometry": {
                "type": "Point",
                "coordinates": [
                    138.619161,
                    -35.029728,
                    0
                ]
            },
            "properties": {
                "name": "Gym"
            }
        },
        {
            "type": "Feature",
            "geometry": {
                "type": "Point",
                "coordinates": [
                    138.62006,
                    -35.029542,
                    0
                ]
            },
            "properties": {
                "name": "Gym"
            }
        },
        {
            "type": "Feature",
            "geometry": {
                "type": "Point",
                "coordinates": [
                    138.623171,
                    -35.020402,
                    0
                ]
            },
            "properties": {
                "name": "Gym"
            }
        },
        {
            "type": "Feature",
            "geometry": {
                "type": "Point",
                "coordinates": [
                    138.615044,
                    -35.019473,
                    0
                ]
            },
            "properties": {
                "name": "Gym"
            }
        },
        {
            "type": "Feature",
            "geometry": {
                "type": "Point",
                "coordinates": [
                    138.61447,
                    -35.020367,
                    0
                ]
            },
            "properties": {
                "name": "Blackwood Water Tower"
            }
        },
        {
            "type": "Feature",
            "geometry": {
                "type": "Point",
                "coordinates": [
                    115.844666,
                    -31.960887,
                    0
                ]
            },
            "properties": {
                "name": "Gym - State War Memorial"
            }
        },
        {
            "type": "Feature",
            "geometry": {
                "type": "Point",
                "coordinates": [
                    115.84391,
                    -31.954711,
                    0
                ]
            },
            "properties": {
                "name": "Gym - Kings Park"
            }
        },
        {
            "type": "Feature",
            "geometry": {
                "type": "Point",
                "coordinates": [
                    145.13478,
                    -37.857677,
                    0
                ]
            },
            "properties": {
                "name": "Ballyshanassy Park Gym"
            }
        },
        {
            "type": "Feature",
            "geometry": {
                "type": "Point",
                "coordinates": [
                    145.13154,
                    -37.860421,
                    0
                ]
            },
            "properties": {
                "name": "A Reminder of the Past Gym"
            }
        },
        {
            "type": "Feature",
            "geometry": {
                "type": "Point",
                "coordinates": [
                    145.282345,
                    -38.11295,
                    0
                ]
            },
            "properties": {
                "name": "Cranbourne Racecourse"
            }
        },
        {
            "type": "Feature",
            "geometry": {
                "type": "Point",
                "coordinates": [
                    144.862493,
                    -37.799434,
                    0
                ]
            },
            "properties": {
                "name": "Tottenham Station"
            }
        },
        {
            "type": "Feature",
            "geometry": {
                "type": "Point",
                "coordinates": [
                    144.860927,
                    -37.793601,
                    0
                ]
            },
            "properties": {
                "name": "Post Offfice"
            }
        },
        {
            "type": "Feature",
            "geometry": {
                "type": "Point",
                "coordinates": [
                    144.856324,
                    -37.799001,
                    0
                ]
            },
            "properties": {
                "name": "Gym"
            }
        },
        {
            "type": "Feature",
            "geometry": {
                "type": "Point",
                "coordinates": [
                    138.66489,
                    -34.876047,
                    0
                ]
            },
            "properties": {
                "name": "Campbelltown Sports Club (Gym)"
            }
        },
        {
            "type": "Feature",
            "geometry": {
                "type": "Point",
                "coordinates": [
                    138.575272,
                    -35.003695,
                    0
                ]
            },
            "properties": {
                "name": "Subterranean"
            }
        },
        {
            "type": "Feature",
            "geometry": {
                "type": "Point",
                "coordinates": [
                    138.56395,
                    -35.01465,
                    0
                ]
            },
            "properties": {
                "name": "Mitchell Park Urban Renewal Project Plaque"
            }
        },
        {
            "type": "Feature",
            "geometry": {
                "type": "Point",
                "coordinates": [
                    138.562515,
                    -35.01053,
                    0
                ]
            },
            "properties": {
                "name": "Faith Tabernacle church"
            }
        },
        {
            "type": "Feature",
            "geometry": {
                "type": "Point",
                "coordinates": [
                    138.564355,
                    -35.002314,
                    0
                ]
            },
            "properties": {
                "name": "Mitchell Park Recreation Reserve"
            }
        },
        {
            "type": "Feature",
            "geometry": {
                "type": "Point",
                "coordinates": [
                    138.570353,
                    -35.010816,
                    0
                ]
            },
            "properties": {
                "name": "Tonsley TAFE Floor Art"
            }
        },
        {
            "type": "Feature",
            "geometry": {
                "type": "Point",
                "coordinates": [
                    138.571198,
                    -35.017508,
                    0
                ]
            },
            "properties": {
                "name": "Flinders Uni Sports Club"
            }
        },
        {
            "type": "Feature",
            "geometry": {
                "type": "Point",
                "coordinates": [
                    138.575588,
                    -34.996247,
                    0
                ]
            },
            "properties": {
                "name": "St Marys On The Sturt Church"
            }
        },
        {
            "type": "Feature",
            "geometry": {
                "type": "Point",
                "coordinates": [
                    138.583772,
                    -34.860024,
                    0
                ]
            },
            "properties": {
                "name": "Thirsty Camel Mural"
            }
        },
        {
            "type": "Feature",
            "geometry": {
                "type": "Point",
                "coordinates": [
                    145.296877,
                    -37.871246,
                    0
                ]
            },
            "properties": {
                "name": "Gym"
            }
        },
        {
            "type": "Feature",
            "geometry": {
                "type": "Point",
                "coordinates": [
                    145.289952,
                    -37.872423,
                    0
                ]
            },
            "properties": {
                "name": "Gym"
            }
        },
        {
            "type": "Feature",
            "geometry": {
                "type": "Point",
                "coordinates": [
                    145.300619,
                    -37.874191,
                    0
                ]
            },
            "properties": {
                "name": "Ambleside homestead Gym",
                "description": "Ambleside homestead"
            }
        },
        {
            "type": "Feature",
            "geometry": {
                "type": "Point",
                "coordinates": [
                    145.29655,
                    -37.881831,
                    0
                ]
            },
            "properties": {
                "name": "Gym"
            }
        },
        {
            "type": "Feature",
            "geometry": {
                "type": "Point",
                "coordinates": [
                    145.114213,
                    -38.050017,
                    0
                ]
            },
            "properties": {
                "name": "Commemorative Water Fountain"
            }
        },
        {
            "type": "Feature",
            "geometry": {
                "type": "Point",
                "coordinates": [
                    145.116595,
                    -38.051344,
                    0
                ]
            },
            "properties": {
                "name": "Kingston Library\n",
                "description": "<img src=\"https://lh6.googleusercontent.com/proxy/Kmj7eiJTQR-Qf6o0wwsMj5ILwGtUfQO23Tpa6xINg4AMwVTolZ14GHnn5nUjdFEBZA\" height=\"200\" width=\"auto\" /><br><br>",
                "gx_media_links": "https://lh6.googleusercontent.com/proxy/Kmj7eiJTQR-Qf6o0wwsMj5ILwGtUfQO23Tpa6xINg4AMwVTolZ14GHnn5nUjdFEBZA"
            }
        },
        {
            "type": "Feature",
            "geometry": {
                "type": "Point",
                "coordinates": [
                    152.953642,
                    -27.084459,
                    0
                ]
            },
            "properties": {
                "name": "Gym"
            }
        },
        {
            "type": "Feature",
            "geometry": {
                "type": "Point",
                "coordinates": [
                    138.585322,
                    -34.861136,
                    0
                ]
            },
            "properties": {
                "name": "Gym"
            }
        },
        {
            "type": "Feature",
            "geometry": {
                "type": "Point",
                "coordinates": [
                    152.949718,
                    -27.089032,
                    0
                ]
            },
            "properties": {
                "name": "Gym"
            }
        },
        {
            "type": "Feature",
            "geometry": {
                "type": "Point",
                "coordinates": [
                    145.114948,
                    -38.052704,
                    0
                ]
            },
            "properties": {
                "name": "Historical Museum"
            }
        },
        {
            "type": "Feature",
            "geometry": {
                "type": "Point",
                "coordinates": [
                    145.12439,
                    -38.085527,
                    0
                ]
            },
            "properties": {
                "name": "Gym"
            }
        },
        {
            "type": "Feature",
            "geometry": {
                "type": "Point",
                "coordinates": [
                    145.124025,
                    -38.086312,
                    0
                ]
            },
            "properties": {
                "name": "Keast Park",
                "description": "<img src=\"https://lh3.googleusercontent.com/proxy/T-oxFw5YZpYXOiK65S4KyXs72lhP4f6vsy8yUGxAQ2bsRUyADafnmJPfucjLOrSlOg\" height=\"200\" width=\"auto\" /><br><br>",
                "gx_media_links": "https://lh3.googleusercontent.com/proxy/T-oxFw5YZpYXOiK65S4KyXs72lhP4f6vsy8yUGxAQ2bsRUyADafnmJPfucjLOrSlOg"
            }
        },
        {
            "type": "Feature",
            "geometry": {
                "type": "Point",
                "coordinates": [
                    145.12704,
                    -38.0882,
                    0
                ]
            },
            "properties": {
                "name": "Gym"
            }
        },
        {
            "type": "Feature",
            "geometry": {
                "type": "Point",
                "coordinates": [
                    145.12764,
                    -38.087596,
                    0
                ]
            },
            "properties": {
                "name": "Gym"
            }
        },
        {
            "type": "Feature",
            "geometry": {
                "type": "Point",
                "coordinates": [
                    153.408629,
                    -27.960011,
                    0
                ]
            },
            "properties": {
                "name": "Southport Gospel Chapel"
            }
        },
        {
            "type": "Feature",
            "geometry": {
                "type": "Point",
                "coordinates": [
                    144.936203,
                    -37.795074,
                    0
                ]
            },
            "properties": {
                "name": "Gym",
                "description": "Macaulay Station"
            }
        },
        {
            "type": "Feature",
            "geometry": {
                "type": "Point",
                "coordinates": [
                    144.944134,
                    -37.798671,
                    0
                ]
            },
            "properties": {
                "name": "Gym",
                "description": "Green Spider"
            }
        },
        {
            "type": "Feature",
            "geometry": {
                "type": "Point",
                "coordinates": [
                    144.933862,
                    -37.799764,
                    0
                ]
            },
            "properties": {
                "name": "Gym",
                "description": "Psychedelia"
            }
        },
        {
            "type": "Feature",
            "geometry": {
                "type": "Point",
                "coordinates": [
                    144.944172,
                    -37.796432,
                    0
                ]
            },
            "properties": {
                "name": "Gym",
                "description": "Ukrainian Catholic Cathedral"
            }
        },
        {
            "type": "Feature",
            "geometry": {
                "type": "Point",
                "coordinates": [
                    145.1732,
                    -37.835327,
                    0
                ]
            },
            "properties": {
                "name": "Forest Hill Reserve Gym"
            }
        },
        {
            "type": "Feature",
            "geometry": {
                "type": "Point",
                "coordinates": [
                    145.020921,
                    -37.855673,
                    0
                ]
            },
            "properties": {
                "name": "Armadale Post Office"
            }
        },
        {
            "type": "Feature",
            "geometry": {
                "type": "Point",
                "coordinates": [
                    145.026736,
                    -37.856624,
                    0
                ]
            },
            "properties": {
                "name": "In To The Worm Hole"
            }
        },
        {
            "type": "Feature",
            "geometry": {
                "type": "Point",
                "coordinates": [
                    145.029142,
                    -37.856482,
                    0
                ]
            },
            "properties": {
                "name": "The Sun and the Moon"
            }
        },
        {
            "type": "Feature",
            "geometry": {
                "type": "Point",
                "coordinates": [
                    148.246722,
                    -19.985882,
                    0
                ]
            },
            "properties": {
                "name": "Scyther"
            }
        },
        {
            "type": "Feature",
            "geometry": {
                "type": "Point",
                "coordinates": [
                    145.128107,
                    -38.104018,
                    0
                ]
            },
            "properties": {
                "name": "Seaford Station",
                "description": "<img src=\"https://lh6.googleusercontent.com/proxy/rynjp1SX93_YQCDDMrLaTlsSfQoWJelkvltB0xk_VNLc2E9vkfZKC87p-aqBg0BROw\" height=\"200\" width=\"auto\" /><br><br>",
                "gx_media_links": "https://lh6.googleusercontent.com/proxy/rynjp1SX93_YQCDDMrLaTlsSfQoWJelkvltB0xk_VNLc2E9vkfZKC87p-aqBg0BROw"
            }
        },
        {
            "type": "Feature",
            "geometry": {
                "type": "Point",
                "coordinates": [
                    145.125484,
                    -38.103959,
                    0
                ]
            },
            "properties": {
                "name": "The Hermitage"
            }
        },
        {
            "type": "Feature",
            "geometry": {
                "type": "Point",
                "coordinates": [
                    145.127485,
                    -38.110409,
                    0
                ]
            },
            "properties": {
                "name": "Kananook Walking Trail History",
                "description": "<img src=\"https://lh4.googleusercontent.com/proxy/trfEe7GCq4Q1PH8oa-2eQzLtR6_pHIQkcSnNSqIiKlrtRY9Dai47s2wi84wKgvoeiQ\" height=\"200\" width=\"auto\" /><br><br>",
                "gx_media_links": "https://lh4.googleusercontent.com/proxy/trfEe7GCq4Q1PH8oa-2eQzLtR6_pHIQkcSnNSqIiKlrtRY9Dai47s2wi84wKgvoeiQ"
            }
        },
        {
            "type": "Feature",
            "geometry": {
                "type": "Point",
                "coordinates": [
                    145.131425,
                    -38.120211,
                    0
                ]
            },
            "properties": {
                "name": "Gym"
            }
        },
        {
            "type": "Feature",
            "geometry": {
                "type": "Point",
                "coordinates": [
                    145.135306,
                    -38.121804,
                    0
                ]
            },
            "properties": {
                "name": "Kananook Railway Station",
                "description": "<img src=\"https://lh6.googleusercontent.com/proxy/NbOJehIczAMBHrO7r6cGBObnFqjqNdLov2jxaXLotJQisPXMcJf217MaoTek9cabng\" height=\"200\" width=\"auto\" /><br><br>",
                "gx_media_links": "https://lh6.googleusercontent.com/proxy/NbOJehIczAMBHrO7r6cGBObnFqjqNdLov2jxaXLotJQisPXMcJf217MaoTek9cabng"
            }
        },
        {
            "type": "Feature",
            "geometry": {
                "type": "Point",
                "coordinates": [
                    145.129888,
                    -38.129459,
                    0
                ]
            },